{"type":"FeatureCollection","features":[{"type":"Feature","properties":{"city":"七台河市","type":4,"cartodb_id":9,"created_at":"2013-12-04T03:30:03Z","updated_at":"2013-12-04T03:30:53Z","cartodb_georef_status":true},"geometry":{"type":"Point","coordinates":[131.00305,45.77026]}},{"type":"Feature","properties":{"city":"万山区","type":1,"cartodb_id":65,"created_at":"2013-12-04T03:30:03Z","updated_at":"2013-12-04T03:30:53Z","cartodb_georef_status":true},"geometry":{"type":"Point","coordinates":[109.21382,27.51805]}},{"type":"Feature","properties":{"city":"下花园区","type":1,"cartodb_id":53,"created_at":"2013-12-04T03:30:03Z","updated_at":"2013-12-04T03:30:53Z","cartodb_georef_status":true},"geometry":{"type":"Point","coordinates":[115.28746,40.50203]}},{"type":"Feature","properties":{"city":"东川区","type":1,"cartodb_id":66,"created_at":"2013-12-04T03:30:03Z","updated_at":"2013-12-04T03:30:53Z","cartodb_georef_status":true},"geometry":{"type":"Point","coordinates":[103.1876,26.08296]}},{"type":"Feature","properties":{"city":"个旧市","type":3,"cartodb_id":45,"created_at":"2013-12-04T03:30:03Z","updated_at":"2013-12-04T03:30:53Z","cartodb_georef_status":true},"geometry":{"type":"Point","coordinates":[103.16018,23.35893]}},{"type":"Feature","properties":{"city":"乌海市","type":4,"cartodb_id":1,"created_at":"2013-12-04T03:30:03Z","updated_at":"2013-12-04T03:30:53Z","cartodb_georef_status":true},"geometry":{"type":"Point","coordinates":[106.79546,39.65364]}},{"type":"Feature","properties":{"city":"九台市","type":3,"cartodb_id":28,"created_at":"2013-12-04T03:30:03Z","updated_at":"2013-12-04T03:30:53Z","cartodb_georef_status":true},"geometry":{"type":"Point","coordinates":[125.83956,44.1516]}},{"type":"Feature","properties":{"city":"二道江区","type":1,"cartodb_id":59,"created_at":"2013-12-04T03:30:03Z","updated_at":"2013-12-04T03:30:53Z","cartodb_georef_status":true},"geometry":{"type":"Point","coordinates":[126.04253,41.77434]}},{"type":"Feature","properties":{"city":"五大连池市","type":3,"cartodb_id":31,"created_at":"2013-12-04T03:30:03Z","updated_at":"2013-12-04T03:30:53Z","cartodb_georef_status":true},"geometry":{"type":"Point","coordinates":[126.20451,48.5164]}},{"type":"Feature","properties":{"city":"井陉矿区","type":1,"cartodb_id":52,"created_at":"2013-12-04T03:30:03Z","updated_at":"2013-12-04T03:30:53Z","cartodb_georef_status":true},"geometry":{"type":"Point","coordinates":[114.06226,38.06478]}},{"type":"Feature","properties":{"city":"伊春市","type":4,"cartodb_id":6,"created_at":"2013-12-04T03:30:03Z","updated_at":"2013-12-04T03:30:53Z","cartodb_georef_status":true},"geometry":{"type":"Point","coordinates":[128.84048,47.72735]}},{"type":"Feature","properties":{"city":"冷水江市","type":3,"cartodb_id":41,"created_at":"2013-12-04T03:30:03Z","updated_at":"2013-12-04T03:30:53Z","cartodb_georef_status":true},"geometry":{"type":"Point","coordinates":[111.43521,27.68612]}},{"type":"Feature","properties":{"city":"北票市","type":3,"cartodb_id":27,"created_at":"2013-12-04T03:30:03Z","updated_at":"2013-12-04T03:30:53Z","cartodb_georef_status":true},"geometry":{"type":"Point","coordinates":[120.77069,41.80088]}},{"type":"Feature","properties":{"city":"华蓥市","type":3,"cartodb_id":44,"created_at":"2013-12-04T03:30:03Z","updated_at":"2013-12-04T03:30:53Z","cartodb_georef_status":true},"geometry":{"type":"Point","coordinates":[106.78316,30.38991]}},{"type":"Feature","properties":{"city":"南川区","type":1,"cartodb_id":63,"created_at":"2013-12-04T03:30:03Z","updated_at":"2013-12-04T03:30:53Z","cartodb_georef_status":true},"geometry":{"type":"Point","coordinates":[107.09888,29.15788]}},{"type":"Feature","properties":{"city":"南票区","type":1,"cartodb_id":57,"created_at":"2013-12-04T03:30:03Z","updated_at":"2013-12-04T03:30:53Z","cartodb_georef_status":true},"geometry":{"type":"Point","coordinates":[120.74952,41.10701]}},{"type":"Feature","properties":{"city":"双鸭山市","type":4,"cartodb_id":8,"created_at":"2013-12-04T03:30:03Z","updated_at":"2013-12-04T03:30:53Z","cartodb_georef_status":true},"geometry":{"type":"Point","coordinates":[131.15882,46.64663]}},{"type":"Feature","properties":{"city":"合山市","type":3,"cartodb_id":43,"created_at":"2013-12-04T03:30:03Z","updated_at":"2013-12-04T03:30:53Z","cartodb_georef_status":true},"geometry":{"type":"Point","coordinates":[108.886,23.80641]}},{"type":"Feature","properties":{"city":"大余县","type":2,"cartodb_id":48,"created_at":"2013-12-04T03:30:03Z","updated_at":"2013-12-04T03:30:53Z","cartodb_georef_status":true},"geometry":{"type":"Point","coordinates":[114.36194,25.40117]}},{"type":"Feature","properties":{"city":"大兴安岭地区","type":4,"cartodb_id":10,"created_at":"2013-12-04T03:30:03Z","updated_at":"2013-12-04T03:30:53Z","cartodb_georef_status":true},"geometry":{"type":"Point","coordinates":[124.59281,51.92272]}},{"type":"Feature","properties":{"city":"大冶市","type":3,"cartodb_id":35,"created_at":"2013-12-04T03:30:03Z","updated_at":"2013-12-04T03:30:53Z","cartodb_georef_status":true},"geometry":{"type":"Point","coordinates":[114.97989,30.09528]}},{"type":"Feature","properties":{"city":"常宁市","type":3,"cartodb_id":38,"created_at":"2013-12-04T03:30:03Z","updated_at":"2013-12-04T03:30:53Z","cartodb_georef_status":true},"geometry":{"type":"Point","coordinates":[112.39993,26.42081]}},{"type":"Feature","properties":{"city":"弓长岭区","type":1,"cartodb_id":56,"created_at":"2013-12-04T03:30:03Z","updated_at":"2013-12-04T03:30:53Z","cartodb_georef_status":true},"geometry":{"type":"Point","coordinates":[123.42039,41.15166]}},{"type":"Feature","properties":{"city":"抚顺市","type":4,"cartodb_id":3,"created_at":"2013-12-04T03:30:03Z","updated_at":"2013-12-04T03:30:53Z","cartodb_georef_status":true},"geometry":{"type":"Point","coordinates":[123.95722,41.87957]}},{"type":"Feature","properties":{"city":"敦化市","type":3,"cartodb_id":30,"created_at":"2013-12-04T03:30:03Z","updated_at":"2013-12-04T03:30:53Z","cartodb_georef_status":true},"geometry":{"type":"Point","coordinates":[128.23205,43.37251]}},{"type":"Feature","properties":{"city":"新余市","type":4,"cartodb_id":14,"created_at":"2013-12-04T03:30:03Z","updated_at":"2013-12-04T03:30:53Z","cartodb_georef_status":true},"geometry":{"type":"Point","coordinates":[114.91713,27.81761]}},{"type":"Feature","properties":{"city":"新泰市","type":3,"cartodb_id":32,"created_at":"2013-12-04T03:30:03Z","updated_at":"2013-12-04T03:30:53Z","cartodb_georef_status":true},"geometry":{"type":"Point","coordinates":[117.76796,35.90862]}},{"type":"Feature","properties":{"city":"昌江黎族自治县","type":2,"cartodb_id":49,"created_at":"2013-12-04T03:30:03Z","updated_at":"2013-12-04T03:30:53Z","cartodb_georef_status":true},"geometry":{"type":"Point","coordinates":[109.05559,19.29809]}},{"type":"Feature","properties":{"city":"易门县","type":2,"cartodb_id":50,"created_at":"2013-12-04T03:30:03Z","updated_at":"2013-12-04T03:30:53Z","cartodb_georef_status":true},"geometry":{"type":"Point","coordinates":[102.16286,24.67115]}},{"type":"Feature","properties":{"city":"景德镇市","type":4,"cartodb_id":13,"created_at":"2013-12-04T03:30:03Z","updated_at":"2013-12-04T03:30:53Z","cartodb_georef_status":true},"geometry":{"type":"Point","coordinates":[117.17849,29.26859]}},{"type":"Feature","properties":{"city":"杨家杖子开发区","type":1,"cartodb_id":58,"created_at":"2013-12-04T03:30:03Z","updated_at":"2013-12-04T03:30:53Z","cartodb_georef_status":true},"geometry":{"type":"Point","coordinates":[120.426804,42.439442]}},{"type":"Feature","properties":{"city":"松滋市","type":3,"cartodb_id":36,"created_at":"2013-12-04T03:30:03Z","updated_at":"2013-12-04T03:30:53Z","cartodb_georef_status":true},"geometry":{"type":"Point","coordinates":[111.76743,30.16939]}},{"type":"Feature","properties":{"city":"枣庄市","type":4,"cartodb_id":16,"created_at":"2013-12-04T03:30:03Z","updated_at":"2013-12-04T03:30:53Z","cartodb_georef_status":true},"geometry":{"type":"Point","coordinates":[117.32172,34.81075]}},{"type":"Feature","properties":{"city":"汪清县","type":2,"cartodb_id":47,"created_at":"2013-12-04T03:30:03Z","updated_at":"2013-12-04T03:30:53Z","cartodb_georef_status":true},"geometry":{"type":"Point","coordinates":[129.77132,43.31298]}},{"type":"Feature","properties":{"city":"泸州市","type":4,"cartodb_id":21,"created_at":"2013-12-04T03:30:03Z","updated_at":"2013-12-04T03:30:53Z","cartodb_georef_status":true},"geometry":{"type":"Point","coordinates":[105.44266,28.8718]}},{"type":"Feature","properties":{"city":"涟源市","type":3,"cartodb_id":42,"created_at":"2013-12-04T03:30:03Z","updated_at":"2013-12-04T03:30:53Z","cartodb_georef_status":true},"geometry":{"type":"Point","coordinates":[111.6646,27.69272]}},{"type":"Feature","properties":{"city":"淄川区","type":1,"cartodb_id":61,"created_at":"2013-12-04T03:30:03Z","updated_at":"2013-12-04T03:30:53Z","cartodb_georef_status":true},"geometry":{"type":"Point","coordinates":[117.96667,36.64324]}},{"type":"Feature","properties":{"city":"淮北市","type":4,"cartodb_id":11,"created_at":"2013-12-04T03:30:03Z","updated_at":"2013-12-04T03:30:53Z","cartodb_georef_status":true},"geometry":{"type":"Point","coordinates":[116.79834,33.9546]}},{"type":"Feature","properties":{"city":"潜江市","type":3,"cartodb_id":37,"created_at":"2013-12-04T03:30:03Z","updated_at":"2013-12-04T03:30:53Z","cartodb_georef_status":true},"geometry":{"type":"Point","coordinates":[112.89917,30.40145]}},{"type":"Feature","properties":{"city":"潼关县","type":2,"cartodb_id":51,"created_at":"2013-12-04T03:30:03Z","updated_at":"2013-12-04T03:30:53Z","cartodb_georef_status":true},"geometry":{"type":"Point","coordinates":[110.24651,34.54419]}},{"type":"Feature","properties":{"city":"濮阳市","type":4,"cartodb_id":18,"created_at":"2013-12-04T03:30:03Z","updated_at":"2013-12-04T03:30:53Z","cartodb_georef_status":true},"geometry":{"type":"Point","coordinates":[115.0293,35.76167]}},{"type":"Feature","properties":{"city":"灵宝市","type":3,"cartodb_id":33,"created_at":"2013-12-04T03:30:03Z","updated_at":"2013-12-04T03:30:53Z","cartodb_georef_status":true},"geometry":{"type":"Point","coordinates":[110.89456,34.51672]}},{"type":"Feature","properties":{"city":"焦作市","type":4,"cartodb_id":17,"created_at":"2013-12-04T03:30:03Z","updated_at":"2013-12-04T03:30:53Z","cartodb_georef_status":true},"geometry":{"type":"Point","coordinates":[113.24202,35.21543]}},{"type":"Feature","properties":{"city":"玉门市","type":3,"cartodb_id":46,"created_at":"2013-12-04T03:30:03Z","updated_at":"2013-12-04T03:30:53Z","cartodb_georef_status":true},"geometry":{"type":"Point","coordinates":[97.04535,40.29139]}},{"type":"Feature","properties":{"city":"白山市","type":4,"cartodb_id":5,"created_at":"2013-12-04T03:30:03Z","updated_at":"2013-12-04T03:30:53Z","cartodb_georef_status":true},"geometry":{"type":"Point","coordinates":[126.42396,41.9406]}},{"type":"Feature","properties":{"city":"白银市","type":4,"cartodb_id":23,"created_at":"2013-12-04T03:30:03Z","updated_at":"2013-12-04T03:30:53Z","cartodb_georef_status":true},"geometry":{"type":"Point","coordinates":[104.13851,36.54449]}},{"type":"Feature","properties":{"city":"石嘴山市","type":4,"cartodb_id":24,"created_at":"2013-12-04T03:30:03Z","updated_at":"2013-12-04T03:30:53Z","cartodb_georef_status":true},"geometry":{"type":"Point","coordinates":[106.38439,38.98389]}},{"type":"Feature","properties":{"city":"石拐区","type":1,"cartodb_id":55,"created_at":"2013-12-04T03:30:03Z","updated_at":"2013-12-04T03:30:53Z","cartodb_georef_status":true},"geometry":{"type":"Point","coordinates":[110.27239,40.67207]}},{"type":"Feature","properties":{"city":"红古区","type":1,"cartodb_id":67,"created_at":"2013-12-04T03:30:03Z","updated_at":"2013-12-04T03:30:53Z","cartodb_georef_status":true},"geometry":{"type":"Point","coordinates":[102.85932,36.34546]}},{"type":"Feature","properties":{"city":"耒阳市","type":3,"cartodb_id":39,"created_at":"2013-12-04T03:30:03Z","updated_at":"2013-12-04T03:30:53Z","cartodb_georef_status":true},"geometry":{"type":"Point","coordinates":[112.85991,26.42228]}},{"type":"Feature","properties":{"city":"舒兰市","type":3,"cartodb_id":29,"created_at":"2013-12-04T03:30:03Z","updated_at":"2013-12-04T03:30:53Z","cartodb_georef_status":true},"geometry":{"type":"Point","coordinates":[126.96535,44.40559]}},{"type":"Feature","properties":{"city":"萍乡市","type":4,"cartodb_id":15,"created_at":"2013-12-04T03:30:03Z","updated_at":"2013-12-04T03:30:53Z","cartodb_georef_status":true},"geometry":{"type":"Point","coordinates":[113.85422,27.62287]}},{"type":"Feature","properties":{"city":"平桂管理区","type":1,"cartodb_id":62,"created_at":"2013-12-04T03:30:03Z","updated_at":"2013-12-04T06:42:39Z","cartodb_georef_status":true},"geometry":{"type":"Point","coordinates":[111.56658,24.40329]}},{"type":"Feature","properties":{"city":"贾汪区","type":1,"cartodb_id":60,"created_at":"2013-12-04T03:30:03Z","updated_at":"2013-12-04T03:30:53Z","cartodb_georef_status":true},"geometry":{"type":"Point","coordinates":[117.45352,34.44284]}},{"type":"Feature","properties":{"city":"资兴市","type":3,"cartodb_id":40,"created_at":"2013-12-04T03:30:03Z","updated_at":"2013-12-04T03:30:53Z","cartodb_georef_status":true},"geometry":{"type":"Point","coordinates":[113.23602,25.97596]}},{"type":"Feature","properties":{"city":"辽源市","type":4,"cartodb_id":4,"created_at":"2013-12-04T03:30:03Z","updated_at":"2013-12-04T03:30:53Z","cartodb_georef_status":true},"geometry":{"type":"Point","coordinates":[125.14335,42.88784]}},{"type":"Feature","properties":{"city":"钟祥市","type":3,"cartodb_id":34,"created_at":"2013-12-04T03:30:03Z","updated_at":"2013-12-04T03:30:53Z","cartodb_georef_status":true},"geometry":{"type":"Point","coordinates":[112.5881,31.1681]}},{"type":"Feature","properties":{"city":"铜川市","type":4,"cartodb_id":22,"created_at":"2013-12-04T03:30:03Z","updated_at":"2013-12-04T03:30:53Z","cartodb_georef_status":true},"geometry":{"type":"Point","coordinates":[108.94513,34.89659]}},{"type":"Feature","properties":{"city":"铜陵市","type":4,"cartodb_id":12,"created_at":"2013-12-04T03:30:03Z","updated_at":"2013-12-04T03:30:53Z","cartodb_georef_status":true},"geometry":{"type":"Point","coordinates":[117.81258,30.94496]}},{"type":"Feature","properties":{"city":"阜新市","type":4,"cartodb_id":2,"created_at":"2013-12-04T03:30:03Z","updated_at":"2013-12-04T03:30:53Z","cartodb_georef_status":true},"geometry":{"type":"Point","coordinates":[121.67021,42.02142]}},{"type":"Feature","properties":{"city":"阿尔山市","type":3,"cartodb_id":26,"created_at":"2013-12-04T03:30:03Z","updated_at":"2013-12-04T03:30:53Z","cartodb_georef_status":true},"geometry":{"type":"Point","coordinates":[119.94403,47.17716]}},{"type":"Feature","properties":{"city":"霍州市","type":3,"cartodb_id":25,"created_at":"2013-12-04T03:30:03Z","updated_at":"2013-12-04T03:30:53Z","cartodb_georef_status":true},"geometry":{"type":"Point","coordinates":[111.75502,36.5685]}},{"type":"Feature","properties":{"city":"韶关市","type":4,"cartodb_id":20,"created_at":"2013-12-04T03:30:03Z","updated_at":"2013-12-04T03:30:53Z","cartodb_georef_status":true},"geometry":{"type":"Point","coordinates":[113.59702,24.81037]}},{"type":"Feature","properties":{"city":"鹤岗市","type":4,"cartodb_id":7,"created_at":"2013-12-04T03:30:03Z","updated_at":"2013-12-04T03:30:53Z","cartodb_georef_status":true},"geometry":{"type":"Point","coordinates":[130.29791,47.34965]}},{"type":"Feature","properties":{"city":"鹰手营子矿区","type":1,"cartodb_id":54,"created_at":"2013-12-04T03:30:03Z","updated_at":"2013-12-04T03:30:53Z","cartodb_georef_status":true},"geometry":{"type":"Point","coordinates":[117.65955,40.54657]}},{"type":"Feature","properties":{"city":"黄石市","type":4,"cartodb_id":19,"created_at":"2013-12-04T03:30:03Z","updated_at":"2013-12-04T03:30:53Z","cartodb_georef_status":true},"geometry":{"type":"Point","coordinates":[115.0389,30.19934]}},{"type":"Feature","properties":{"city":"万盛经济开发区","type":1,"cartodb_id":64,"created_at":"2013-12-04T03:30:03Z","updated_at":"2013-12-04T06:42:24Z","cartodb_georef_status":true},"geometry":{"type":"Point","coordinates":[106.92834,28.96465]}}]}